{
    "ADL": {
        "code": "ADL",
        "name": "Arendal",
        "platforms": 2,
        "lat": 58.465024928218185,
        "long": 8.769525289535524
    },
    "ALA": {
        "code": "ALA",
        "name": "Alna",
        "platforms": 1,
        "lat": 59.93241455163585,
        "long": 10.835271477699282
    },
    "ALV": {
        "code": "ALV",
        "name": "Alvdal",
        "platforms": 1,
        "lat": 62.10888629807019,
        "long": 10.632882714271545
    },
    "ARN": {
        "code": "ARN",
        "name": "Arna",
        "platforms": 1,
        "lat": 60.420263253766,
        "long": 5.466637015342713
    },
    "ASM": {
        "code": "ASM",
        "name": "Askim",
        "platforms": 1,
        "lat": 59.58174952059052,
        "long": 11.163091063499452
    },
    "ASR": {
        "code": "ASR",
        "name": "Asker",
        "defaultDestinations": [
            {
                "code": "SPI",
                "header": "<b>Spikkestad</b> via Heggedal",
                "departures": [
                    {
                        "line": "L1",
                        "destination": "SPI"
                    }
                ]
            },
            {
                "code": "LLS",
                "header": "<b>Lillestrøm</b> via Lysaker • Oslo S",
                "departures": [
                    {
                        "line": "L1",
                        "destination": "LLS"
                    },
                    {
                        "line": "R10",
                        "destination": "LHM"
                    },
                    {
                        "line": "R11",
                        "destination": "EVL"
                    },
                    {
                        "line": "L12",
                        "destination": "EVL"
                    },
                    {
                        "line": "L13",
                        "destination": "DAL"
                    },
                    {
                        "line": "L14",
                        "destination": "KVG"
                    }
                ]
            },
            {
                "code": "DRM",
                "header": "<b>Drammen</b>",
                "departures": [
                    {
                        "line": "R10",
                        "destination": "DRM"
                    },
                    {
                        "line": "R11",
                        "destination": "SKN"
                    },
                    {
                        "line": "R11x",
                        "destination": "SKN"
                    },
                    {
                        "line": "L12",
                        "destination": "KBG"
                    },
                    {
                        "line": "L13",
                        "destination": "DRM"
                    },
                    {
                        "line": "L13",
                        "destination": "KBG"
                    }
                ]
            },
            {
                "code": "GAR",
                "header": "<b>Oslo Lufthavn</b> Oslo Airport",
                "departures": [
                    {
                        "line": "F2",
                        "destination": "GAR"
                    },
                    {
                        "line": "R10",
                        "destination": "LHM"
                    },
                    {
                        "line": "R11",
                        "destination": "EVL"
                    },
                    {
                        "line": "L12",
                        "destination": "EVL"
                    }
                ]
            }
        ],
        "platforms": 6,
        "lat": 59.83348137223247,
        "long": 10.434479713439943
    },
    "ATN": {
        "code": "ATN",
        "name": "Atna",
        "platforms": 1,
        "lat": 61.73247433538159,
        "long": 10.834713578224184
    },
    "AUD": {
        "code": "AUD",
        "name": "Audnedal",
        "platforms": 1,
        "lat": 58.31882339383131,
        "long": 7.367470264434815
    },
    "AUL": {
        "code": "AUL",
        "name": "Auli",
        "platforms": 1,
        "lat": 60.03908803991412,
        "long": 11.351891756057741
    },
    "AUM": {
        "code": "AUM",
        "name": "Auma",
        "platforms": 1,
        "lat": 62.220658620870815,
        "long": 10.658621191978455
    },
    "BEG": {
        "code": "BEG",
        "name": "Bergsgrav",
        "platforms": 1,
        "lat": 63.77120016118269,
        "long": 11.471357345581056
    },
    "BER": {
        "code": "BER",
        "name": "Berekvam",
        "platforms": 1,
        "lat": 60.78823790275965,
        "long": 7.095773220062257
    },
    "BJE": {
        "code": "BJE",
        "name": "Bjerka",
        "platforms": 1,
        "lat": 66.14994442409709,
        "long": 13.831739781275761
    },
    "BJF": {
        "code": "BJF",
        "name": "Bjørnfjell",
        "platforms": 1,
        "lat": 68.43219089568862,
        "long": 18.07125358741527
    },
    "BJO": {
        "code": "BJO",
        "name": "Bjorli",
        "platforms": 1,
        "lat": 62.25866471968635,
        "long": 8.201122283935549
    },
    "BLA": {
        "code": "BLA",
        "name": "Blakstad",
        "platforms": 1,
        "lat": 58.50747383573968,
        "long": 8.648616671562197
    },
    "BLE": {
        "code": "BLE",
        "name": "Bleiken",
        "platforms": 1,
        "lat": 60.46872224300836,
        "long": 10.500344038009645
    },
    "BLH": {
        "code": "BLH",
        "name": "Blomheller",
        "platforms": 1,
        "lat": 60.771667167670685,
        "long": 7.101835012435914
    },
    "BLK": {
        "code": "BLK",
        "name": "Blaker",
        "platforms": 1,
        "lat": 60.004835452843196,
        "long": 11.301262378692629
    },
    "BLO": {
        "code": "BLO",
        "name": "Blommenholm",
        "platforms": 1,
        "lat": 59.897213912778085,
        "long": 10.554736321485501
    },
    "BMO": {
        "code": "BMO",
        "name": "Bellingmo",
        "platforms": 1,
        "lat": 62.03011834108133,
        "long": 10.785183906555178
    },
    "BO": {
        "code": "BO",
        "name": "Bodø",
        "platforms": 1,
        "lat": 67.28636813387034,
        "long": 14.391161620232673
    },
    "BOD": {
        "code": "BOD",
        "name": "Bodung",
        "platforms": 1,
        "lat": 60.08510599220274,
        "long": 11.419934034347536
    },
    "BOL": {
        "code": "BOL",
        "name": "Bolstadøyri",
        "platforms": 1,
        "lat": 60.63795103671486,
        "long": 5.957851409912109
    },
    "BON": {
        "code": "BON",
        "name": "Bondivann",
        "platforms": 1,
        "lat": 59.82060041070269,
        "long": 10.432786589936384
    },
    "BR": {
        "code": "BR",
        "name": "Bryn",
        "platforms": 1,
        "lat": 59.90830806458599,
        "long": 10.818695425987245
    },
    "BRA": {
        "code": "BRA",
        "name": "Brakerøya",
        "platforms": 1,
        "lat": 59.74370090142932,
        "long": 10.23281514644623
    },
    "BRD": {
        "code": "BRD",
        "name": "Brumunddal",
        "platforms": 1,
        "lat": 60.88042241947851,
        "long": 10.937710404396057
    },
    "BRG": {
        "code": "BRG",
        "name": "Bergen",
        "defaultDestinations": [
            {
                "code": "ARN",
                "header": "<b>Arna</b> Direkte tog / Direct Trains",
                "departures": [
                    {
                        "line": "",
                        "destination": "ARN"
                    },
                    {
                        "line": "",
                        "destination": "OSL"
                    },
                    {
                        "line": "",
                        "destination": "VOS"
                    },
                    {
                        "line": "",
                        "destination": "MFJ"
                    }
                ]
            },
            {
                "code": "OSL",
                "header": "<b>Oslo S</b> via Arna • Dale • Myrdal • Drammen",
                "departures": [
                    {
                        "line": "",
                        "destination": "OSL"
                    }
                ]
            },
            {
                "code": "VOS",
                "header": "<b>Voss</b> via Arna • Dale",
                "departures": [
                    {
                        "line": "",
                        "destination": "OSL"
                    },
                    {
                        "line": "",
                        "destination": "VOS"
                    },
                    {
                        "line": "",
                        "destination": "MFJ"
                    }
                ]
            }
        ],
        "platforms": 4,
        "lat": 60.39023447775895,
        "long": 5.333390235900879
    },
    "BRL": {
        "code": "BRL",
        "name": "Breland",
        "platforms": 1,
        "lat": 58.19957568914187,
        "long": 7.720223665237428
    },
    "BRS": {
        "code": "BRS",
        "name": "Brusand",
        "platforms": 1,
        "lat": 58.540322066800805,
        "long": 5.749175548553468
    },
    "BRY": {
        "code": "BRY",
        "name": "Bryne",
        "platforms": 1,
        "lat": 58.73477509540431,
        "long": 5.649569034576417
    },
    "BST": {
        "code": "BST",
        "name": "Billingstad",
        "platforms": 1,
        "lat": 59.874796506546026,
        "long": 10.483077719241775
    },
    "BUL": {
        "code": "BUL",
        "name": "Bulken",
        "platforms": 1,
        "lat": 60.63065650317573,
        "long": 6.284517645835877
    },
    "BÅK": {
        "code": "BÅK",
        "name": "Berkåk",
        "platforms": 1,
        "lat": 62.82304093448706,
        "long": 10.014392137527468
    },
    "BÅS": {
        "code": "BÅS",
        "name": "Bråstad",
        "platforms": 1,
        "lat": 58.46275527108644,
        "long": 8.689520359039308
    },
    "BØ": {
        "code": "BØ",
        "name": "Bø",
        "platforms": 1,
        "lat": 59.40932302651477,
        "long": 9.069540419094217
    },
    "BØY": {
        "code": "BØY",
        "name": "Bøylestad",
        "platforms": 1,
        "lat": 58.576597580536344,
        "long": 8.70568871498108
    },
    "DAL": {
        "code": "DAL",
        "name": "Dal",
        "platforms": 1,
        "lat": 60.24880937889779,
        "long": 11.20261073112488
    },
    "DAR": {
        "code": "DAR",
        "name": "Darbu",
        "platforms": 1,
        "lat": 59.701417823817714,
        "long": 9.799917340278627
    },
    "DL": {
        "code": "DL",
        "name": "Dale",
        "platforms": 1,
        "lat": 60.58624194226985,
        "long": 5.815887451171875
    },
    "DOM": {
        "code": "DOM",
        "name": "Dombås",
        "platforms": 1,
        "lat": 62.06866332558719,
        "long": 9.125899672508242
    },
    "DOV": {
        "code": "DOV",
        "name": "Dovre",
        "platforms": 1,
        "lat": 61.98453463305712,
        "long": 9.25701141357422
    },
    "DRD": {
        "code": "DRD",
        "name": "Drangedal",
        "platforms": 1,
        "lat": 59.09610653597044,
        "long": 9.064133763313295
    },
    "DRM": {
        "code": "DRM",
        "name": "Drammen",
        "defaultDestinations": [
            {
                "code": "KBG",
                "header": "<b>Kongsberg</b> via Hokksund",
                "departures": [
                    {
                        "line": "L12",
                        "destination": "KBG"
                    },
                    {
                        "line": "L13",
                        "destination": "KBG"
                    },
                    {
                        "line": "",
                        "destination": "STV"
                    }
                ]
            },
            {
                "code": "LLS",
                "header": "<b>Lillestrøm</b> via Asker • Lysaker • Oslo S",
                "departures": [
                    {
                        "line": "R10",
                        "destination": "LHM"
                    },
                    {
                        "line": "R11",
                        "destination": "EVL"
                    },
                    {
                        "line": "L12",
                        "destination": "EVL"
                    },
                    {
                        "line": "L13",
                        "destination": "DAL"
                    },
                    {
                        "line": "L14",
                        "destination": "KVG"
                    }
                ]
            },
            {
                "code": "SKN",
                "header": "<b>Skien</b> via Sandefjord • Larvik",
                "departures": [
                    {
                        "line": "R11",
                        "destination": "SKN"
                    },
                    {
                        "line": "R11x",
                        "destination": "SKN"
                    }
                ]
            },
            {
                "code": "GAR",
                "header": "<b>Oslo Lufthavn</b> Oslo Airport",
                "departures": [
                    {
                        "line": "F2",
                        "destination": "GAR"
                    },
                    {
                        "line": "R10",
                        "destination": "LHM"
                    },
                    {
                        "line": "R11",
                        "destination": "EVL"
                    },
                    {
                        "line": "R11x",
                        "destination": "EVL"
                    }
                ]
            }
        ],
        "platforms": 5,
        "lat": 59.7401543564285,
        "long": 10.20382046699524
    },
    "DUN": {
        "code": "DUN",
        "name": "Dunderland",
        "platforms": 1,
        "lat": 66.44614397857234,
        "long": 14.838017418116076
    },
    "DVT": {
        "code": "DVT",
        "name": "Drevvatn",
        "platforms": 1,
        "lat": 66.07125267060212,
        "long": 13.45562822071387
    },
    "EBE": {
        "code": "EBE",
        "name": "Røstad",
        "platforms": 1,
        "lat": 63.75298857799181,
        "long": 11.319093704223633
    },
    "EBG": {
        "code": "EBG",
        "name": "Eidsberg",
        "platforms": 1,
        "lat": 59.51354690210364,
        "long": 11.303783655166626
    },
    "EGS": {
        "code": "EGS",
        "name": "Egersund",
        "platforms": 1,
        "lat": 58.461239909204366,
        "long": 6.001904010772706
    },
    "EIK": {
        "code": "EIK",
        "name": "Eikenes",
        "platforms": 1,
        "lat": "0",
        "long": "0"
    },
    "EIN": {
        "code": "EIN",
        "name": "Eina",
        "platforms": 1,
        "lat": 60.63031792173813,
        "long": 10.597493648529055
    },
    "ELV": {
        "code": "ELV",
        "name": "Elverum",
        "platforms": 1,
        "lat": 60.88286045450095,
        "long": 11.546389460563661
    },
    "EVE": {
        "code": "EVE",
        "name": "Evenstad",
        "platforms": 1,
        "lat": 61.42335699359397,
        "long": 11.099565625190737
    },
    "EVG": {
        "code": "EVG",
        "name": "Evanger",
        "platforms": 1,
        "lat": 60.64703255247038,
        "long": 6.109696626663208
    },
    "EVL": {
        "code": "EVL",
        "name": "Eidsvoll",
        "platforms": 1,
        "lat": 60.32967172291016,
        "long": 11.247822046279907
    },
    "EVV": {
        "code": "EVV",
        "name": "Eidsvoll Verk",
        "platforms": 1,
        "lat": 60.28786179288371,
        "long": 11.16940498352051
    },
    "FAU": {
        "code": "FAU",
        "name": "Fauske",
        "platforms": 1,
        "lat": 67.26412448819305,
        "long": 15.399226181943778
    },
    "FET": {
        "code": "FET",
        "name": "Fetsund",
        "platforms": 1,
        "lat": 59.92692531278988,
        "long": 11.1619108915329
    },
    "FIN": {
        "code": "FIN",
        "name": "Finse",
        "platforms": 1,
        "lat": "0",
        "long": "0"
    },
    "FJE": {
        "code": "FJE",
        "name": "Fjellhamar",
        "platforms": 1,
        "lat": 59.94070687897023,
        "long": 10.98182201385498
    },
    "FLA": {
        "code": "FLA",
        "name": "Flaten",
        "platforms": 1,
        "lat": 58.6362003582773,
        "long": 8.68073344230652
    },
    "FLÅ": {
        "code": "FLÅ",
        "name": "Flå",
        "platforms": 1,
        "lat": 60.432271535398904,
        "long": 9.473074078559875
    },
    "FM": {
        "code": "FM",
        "name": "Flåm",
        "defaultDestinations": [
            {
                "code": "MYR",
                "header": "<b>Myrdal</b> via Berekvam • Kjosfossen",
                "departures": [
                    {
                        "line": "",
                        "destination": "MYR"
                    }
                ]
            },
            {
                "code": "MYR",
                "header": "<b>Myrdal</b> via Berekvam • Kjosfossen",
                "departures": [
                    {
                        "line": "",
                        "destination": "MYR"
                    }
                ]
            },
            {
                "code": "MYR",
                "header": "<b>Myrdal</b> via Berekvam • Kjosfossen",
                "departures": [
                    {
                        "line": "",
                        "destination": "MYR"
                    }
                ]
            },
            {
                "code": "MYR",
                "header": "<b>Myrdal</b> via Berekvam • Kjosfossen",
                "departures": [
                    {
                        "line": "",
                        "destination": "MYR"
                    }
                ]
            }
        ],
        "platforms": 1,
        "lat": 60.86295322431386,
        "long": 7.11317539215088
    },
    "FRE": {
        "code": "FRE",
        "name": "Fredrikstad",
        "platforms": 1,
        "lat": 59.208989588995834,
        "long": 10.950311422348024
    },
    "FRL": {
        "code": "FRL",
        "name": "Froland",
        "platforms": 1,
        "lat": 58.52944713005578,
        "long": 8.654453158378603
    },
    "FRO": {
        "code": "FRO",
        "name": "Frogner",
        "platforms": 1,
        "lat": 60.02287723580508,
        "long": 11.103191971778871
    },
    "GAN": {
        "code": "GAN",
        "name": "Ganddal",
        "platforms": 1,
        "lat": 58.82347853328566,
        "long": 5.717208981513978
    },
    "GAR": {
        "code": "GAR",
        "name": "Oslo Lufthavn",
        "platforms": 1,
        "lat": 60.19314753748572,
        "long": 11.096819043159487
    },
    "GAU": {
        "code": "GAU",
        "name": "Gausel",
        "platforms": 1,
        "lat": 58.89996141578491,
        "long": 5.7401901483535775
    },
    "GHA": {
        "code": "GHA",
        "name": "Gullhella",
        "platforms": 1,
        "lat": 59.80692792459349,
        "long": 10.436359355721283
    },
    "GJE": {
        "code": "GJE",
        "name": "Gjerstad",
        "platforms": 1,
        "lat": 58.86986215501526,
        "long": 9.02333199977875
    },
    "GJÅ": {
        "code": "GJÅ",
        "name": "Gjerdåker",
        "platforms": 1,
        "lat": 60.63940744977434,
        "long": 6.463673114776612
    },
    "GJØ": {
        "code": "GJØ",
        "name": "Gjøvik",
        "defaultDestinations": [
            {
                "code": "OSL",
                "header": "<b>Oslo S</b> via Raufoss • Jaren • Roa",
                "departures": [
                    {
                        "line": "R30",
                        "destination": "OSL"
                    },
                    {
                        "line": "R30x",
                        "destination": "OSL"
                    }
                ]
            }
        ],
        "platforms": 1,
        "lat": 60.79700451176107,
        "long": 10.694541335105898
    },
    "GLO": {
        "code": "GLO",
        "name": "Geilo",
        "platforms": 1,
        "lat": 60.53452415820534,
        "long": 8.206374049186708
    },
    "GOL": {
        "code": "GOL",
        "name": "Gol",
        "platforms": 1,
        "lat": 60.69906732343953,
        "long": 8.970916271209719
    },
    "GOS": {
        "code": "GOS",
        "name": "Glåmos",
        "platforms": 1,
        "lat": 62.67443593796975,
        "long": 11.416769027709961
    },
    "GRA": {
        "code": "GRA",
        "name": "Gran",
        "platforms": 1,
        "lat": 60.358850650810616,
        "long": 10.569899082183838
    },
    "GRE": {
        "code": "GRE",
        "name": "Grefsen",
        "platforms": 1,
        "lat": 59.94169141695935,
        "long": 10.78060805797577
    },
    "GRG": {
        "code": "GRG",
        "name": "Grong",
        "platforms": 1,
        "lat": 64.45853328739936,
        "long": 12.337586476186864
    },
    "GRO": {
        "code": "GRO",
        "name": "Grorud",
        "platforms": 1,
        "lat": 59.9498763435623,
        "long": 10.887907147407534
    },
    "GRU": {
        "code": "GRU",
        "name": "Grua",
        "platforms": 1,
        "lat": 60.25905609543514,
        "long": 10.664945840835571
    },
    "GU": {
        "code": "GU",
        "name": "Gudå",
        "platforms": 1,
        "lat": 63.44374825104223,
        "long": 11.618015170097353
    },
    "GUD": {
        "code": "GUD",
        "name": "Greverud",
        "platforms": 1,
        "lat": 59.77298475363099,
        "long": 10.806217789649965
    },
    "GUL": {
        "code": "GUL",
        "name": "Gulskogen",
        "platforms": 1,
        "lat": 59.74384151484551,
        "long": 10.160787105560305
    },
    "GYL": {
        "code": "GYL",
        "name": "Gyland",
        "platforms": 1,
        "lat": 58.384327196990675,
        "long": 6.837717890739441
    },
    "HAB": {
        "code": "HAB",
        "name": "Hanaborg",
        "platforms": 1,
        "lat": 59.93884735599051,
        "long": 10.966249108314514
    },
    "HAG": {
        "code": "HAG",
        "name": "Haga",
        "platforms": 1,
        "lat": 60.0537418605973,
        "long": 11.37312948703766
    },
    "HAK": {
        "code": "HAK",
        "name": "Hakadal",
        "platforms": 1,
        "lat": 60.117319391867575,
        "long": 10.829633474349977
    },
    "HAL": {
        "code": "HAL",
        "name": "Hallingskeid",
        "platforms": 1,
        "lat": "0",
        "long": "0"
    },
    "HAN": {
        "code": "HAN",
        "name": "Hanestad",
        "platforms": 1,
        "lat": 61.838071857554716,
        "long": 10.878986120224
    },
    "HAR": {
        "code": "HAR",
        "name": "Harran",
        "platforms": 1,
        "lat": 64.56886960390429,
        "long": 12.494092644213259
    },
    "HAU": {
        "code": "HAU",
        "name": "Haugastøl",
        "platforms": 1,
        "lat": 60.51128485931055,
        "long": 7.870523929595948
    },
    "HDN": {
        "code": "HDN",
        "name": "Haltdalen",
        "platforms": 1,
        "lat": 62.9284181683185,
        "long": 11.14416539669037
    },
    "HEG": {
        "code": "HEG",
        "name": "Heggedal",
        "platforms": 1,
        "lat": 59.787025102653004,
        "long": 10.431134091147896
    },
    "HEI": {
        "code": "HEI",
        "name": "Heia",
        "platforms": 1,
        "lat": 59.47301408317188,
        "long": 11.32971525192261
    },
    "HEL": {
        "code": "HEL",
        "name": "Hell",
        "platforms": 1,
        "lat": 63.44603411842942,
        "long": 10.898839831352234
    },
    "HEV": {
        "code": "HEV",
        "name": "Hellvik",
        "platforms": 1,
        "lat": 58.48567109062485,
        "long": 5.8974426984787
    },
    "HFS": {
        "code": "HFS",
        "name": "Hønefoss",
        "platforms": 1,
        "lat": 60.16927653196442,
        "long": 10.249090790748598
    },
    "HGA": {
        "code": "HGA",
        "name": "Haugenstua",
        "platforms": 1,
        "lat": 59.95147185901779,
        "long": 10.908538699150085
    },
    "HJN": {
        "code": "HJN",
        "name": "Hjerkinn",
        "platforms": 1,
        "lat": 62.219863308554125,
        "long": 9.541234374046327
    },
    "HLD": {
        "code": "HLD",
        "name": "Halden",
        "platforms": 1,
        "lat": 59.12012322548549,
        "long": 11.384019255638124
    },
    "HMA": {
        "code": "HMA",
        "name": "Holmlia",
        "platforms": 1,
        "lat": 59.83472320464749,
        "long": 10.797044634819033
    },
    "HMD": {
        "code": "HMD",
        "name": "Heimdal",
        "platforms": 1,
        "lat": 63.35083426947615,
        "long": 10.357720255851747
    },
    "HMR": {
        "code": "HMR",
        "name": "Hamar",
        "platforms": 1,
        "lat": 60.79142084897712,
        "long": 11.077174544334412
    },
    "HMV": {
        "code": "HMV",
        "name": "Hommelvik",
        "platforms": 1,
        "lat": 63.411775985178515,
        "long": 10.794045925140383
    },
    "HOI": {
        "code": "HOI",
        "name": "Hovin",
        "platforms": 1,
        "lat": 63.09884308659579,
        "long": 10.230437984066448
    },
    "HOK": {
        "code": "HOK",
        "name": "Hokksund",
        "platforms": 3,
        "lat": 59.767262518248366,
        "long": 9.910740852355959
    },
    "HRA": {
        "code": "HRA",
        "name": "Hegra",
        "platforms": 1,
        "lat": 63.461232273646004,
        "long": 11.104672551155092
    },
    "HSD": {
        "code": "HSD",
        "name": "Holmestrand",
        "platforms": 4,
        "lat": 59.490147970608966,
        "long": 10.3107225894928
    },
    "HSG": {
        "code": "HSG",
        "name": "Hallenskog",
        "platforms": 1,
        "lat": 59.7743490473026,
        "long": 10.419305685200266
    },
    "HSR": {
        "code": "HSR",
        "name": "Hauerseter",
        "platforms": 1,
        "lat": 60.18496795665469,
        "long": 11.1956262588501
    },
    "HSS": {
        "code": "HSS",
        "name": "Hunderfossen",
        "platforms": 1,
        "lat": 61.22333547033271,
        "long": 10.438615679740908
    },
    "HST": {
        "code": "HST",
        "name": "Harestua",
        "platforms": 1,
        "lat": 60.20681344750551,
        "long": 10.72321951389313
    },
    "HTO": {
        "code": "HTO",
        "name": "Hauketo",
        "platforms": 1,
        "lat": 59.84600819000253,
        "long": 10.80310642719269
    },
    "HVA": {
        "code": "HVA",
        "name": "Hvalstad",
        "platforms": 1,
        "lat": 59.85876513079066,
        "long": 10.461888317820412
    },
    "HVK": {
        "code": "HVK",
        "name": "Høvik",
        "platforms": 1,
        "lat": 59.900931510382065,
        "long": 10.582185509838633
    },
    "HÅR": {
        "code": "HÅR",
        "name": "Håreina",
        "platforms": 1,
        "lat": 60.83973717261268,
        "long": 7.122713327407838
    },
    "HØB": {
        "code": "HØB",
        "name": "Høybråten",
        "platforms": 1,
        "lat": 59.94799303852885,
        "long": 10.927625298500063
    },
    "HØN": {
        "code": "HØN",
        "name": "Høn",
        "platforms": 1,
        "lat": 59.84368303198356,
        "long": 10.456066131591799
    },
    "ILS": {
        "code": "ILS",
        "name": "Ilseng",
        "platforms": 1,
        "lat": 60.77685148003781,
        "long": 11.222561001777649
    },
    "JAR": {
        "code": "JAR",
        "name": "Jaren",
        "platforms": 1,
        "lat": 60.392759659596,
        "long": 10.556101799011232
    },
    "JEH": {
        "code": "JEH",
        "name": "Jessheim",
        "platforms": 1,
        "lat": 60.14230807501228,
        "long": 11.176861524581911
    },
    "JVI": {
        "code": "JVI",
        "name": "Jørnevik",
        "platforms": 1,
        "lat": "0",
        "long": "0"
    },
    "JÅT": {
        "code": "JÅT",
        "name": "Jåttåvågen",
        "platforms": 1,
        "lat": 58.91405549506848,
        "long": 5.728865861892701
    },
    "JØR": {
        "code": "JØR",
        "name": "Jørstad",
        "platforms": 1,
        "lat": 64.20668086439011,
        "long": 12.242128172131375
    },
    "KAM": {
        "code": "KAM",
        "name": "Kambo",
        "platforms": 1,
        "lat": 59.47762434913029,
        "long": 10.692309737205507
    },
    "KAT": {
        "code": "KAT",
        "name": "Katterat",
        "platforms": 1,
        "lat": 68.397542424277,
        "long": 17.965456644230738
    },
    "KBG": {
        "code": "KBG",
        "name": "Kongsberg",
        "defaultDestinations": [
            {
                "code": "EVL",
                "header": "<b>Eidsvoll</b> via Hokksund • Lysaker • Oslo S",
                "departures": [
                    {
                        "line": "L12",
                        "destination": "EVL"
                    },
                    {
                        "line": "L13",
                        "destination": "DAL"
                    }
                ]
            },
            {
                "code": "KRS",
                "header": "<b>Kristiansand</b> via Nelaug",
                "departures": [
                    {
                        "line": "",
                        "destination": "KRS"
                    },
                    {
                        "line": "",
                        "destination": "STV"
                    }
                ]
            }
        ],
        "platforms": 3,
        "lat": 59.672194582061735,
        "long": 9.650561213493349
    },
    "KJE": {
        "code": "KJE",
        "name": "Kjelsås",
        "platforms": 1,
        "lat": 59.96606028187717,
        "long": 10.783032774925232
    },
    "KJF": {
        "code": "KJF",
        "name": "Kjosfossen",
        "platforms": 1,
        "lat": 60.74703749421947,
        "long": 7.135791778564454
    },
    "KJS": {
        "code": "KJS",
        "name": "Kjose",
        "platforms": 1,
        "lat": "0",
        "long": "0"
    },
    "KLP": {
        "code": "KLP",
        "name": "Klepp",
        "platforms": 1,
        "lat": 58.772287759120054,
        "long": 5.678917765617371
    },
    "KLV": {
        "code": "KLV",
        "name": "Kløve",
        "platforms": 1,
        "lat": 60.66361515883297,
        "long": 6.535170078277589
    },
    "KLØ": {
        "code": "KLØ",
        "name": "Kløfta",
        "platforms": 1,
        "lat": 60.07533861902155,
        "long": 11.13915503025055
    },
    "KNA": {
        "code": "KNA",
        "name": "Knapstad",
        "platforms": 1,
        "lat": 59.626336885932105,
        "long": 11.032344102859499
    },
    "KOL": {
        "code": "KOL",
        "name": "Kolbotn",
        "platforms": 1,
        "lat": 59.81093741530056,
        "long": 10.801191329956056
    },
    "KOP": {
        "code": "KOP",
        "name": "Koppang",
        "platforms": 1,
        "lat": 61.57290537231028,
        "long": 11.044489145278932
    },
    "KOT": {
        "code": "KOT",
        "name": "Kotsøy",
        "platforms": 1,
        "lat": 62.97638502773839,
        "long": 10.56135356426239
    },
    "KPR": {
        "code": "KPR",
        "name": "Kopperå",
        "platforms": 1,
        "lat": 63.392110559633736,
        "long": 11.848315000534058
    },
    "KRH": {
        "code": "KRH",
        "name": "Kristinehamn",
        "platforms": 1,
        "lat": "0",
        "long": "0"
    },
    "KRS": {
        "code": "KRS",
        "name": "Kristiansand",
        "defaultDestinations": [
            {
                "code": "STV",
                "header": "<b>Stavanger</b> via Egersund • Sandnes Sentrum",
                "departures": [
                    {
                        "line": "",
                        "destination": "STV"
                    }
                ]
            },
            {
                "code": "KRS",
                "header": "<b>Oslo S</b> via Kongsberg • Hokksund • Drammen",
                "departures": [
                    {
                        "line": "",
                        "destination": "OSL"
                    }
                ]
            },
            {
                "code": "NEL",
                "header": "<b>Nelaug</b>",
                "departures": [
                    {
                        "line": "",
                        "destination": "OSL"
                    }
                ]
            }
        ],
        "platforms": 1,
        "lat": 58.14563591912202,
        "long": 7.987173199653626
    },
    "KRÅ": {
        "code": "KRÅ",
        "name": "Kråkstad",
        "platforms": 1,
        "lat": 59.68339126734786,
        "long": 10.890900492668154
    },
    "KVA": {
        "code": "KVA",
        "name": "Kvam",
        "platforms": 1,
        "lat": "0",
        "long": "0"
    },
    "KVG": {
        "code": "KVG",
        "name": "Kongsvinger",
        "platforms": 1,
        "lat": 60.187467242987644,
        "long": 12.00361490249634
    },
    "KVI": {
        "code": "KVI",
        "name": "Kvitfjell",
        "platforms": 1,
        "lat": "0",
        "long": "0"
    },
    "KVL": {
        "code": "KVL",
        "name": "Kongsvoll",
        "platforms": 1,
        "lat": 62.30701154235539,
        "long": 9.605795145034792
    },
    "KVÅ": {
        "code": "KVÅ",
        "name": "Kvål",
        "platforms": 1,
        "lat": 63.233361024006285,
        "long": 10.280005383059839
    },
    "LAN": {
        "code": "LAN",
        "name": "Langhus",
        "platforms": 1,
        "lat": 59.74945184832914,
        "long": 10.83677351474762
    },
    "LBG": {
        "code": "LBG",
        "name": "Lindeberg",
        "platforms": 1,
        "lat": 60.03968821599617,
        "long": 11.12843692302704
    },
    "LDM": {
        "code": "LDM",
        "name": "Lilleby",
        "platforms": 1,
        "lat": 63.43990204492299,
        "long": 10.432451963424684
    },
    "LEA": {
        "code": "LEA",
        "name": "Leangen",
        "platforms": 1,
        "lat": 63.43672536102723,
        "long": 10.464305877685549
    },
    "LER": {
        "code": "LER",
        "name": "Ler",
        "platforms": 1,
        "lat": 63.19764690994541,
        "long": 10.298034912060801
    },
    "LES": {
        "code": "LES",
        "name": "Lesja",
        "platforms": 1,
        "lat": 62.118616250853584,
        "long": 8.853896856307985
    },
    "LEV": {
        "code": "LEV",
        "name": "Levanger",
        "platforms": 1,
        "lat": 63.74481131046529,
        "long": 11.300387978553772
    },
    "LHM": {
        "code": "LHM",
        "name": "Lillehammer",
        "platforms": 1,
        "lat": 61.11474323002384,
        "long": 10.461307168006899
    },
    "LIE": {
        "code": "LIE",
        "name": "Lier",
        "platforms": 2,
        "lat": 59.76334741053117,
        "long": 10.290418267250063
    },
    "LJA": {
        "code": "LJA",
        "name": "Ljan",
        "platforms": 1,
        "lat": "0",
        "long": "0"
    },
    "LJB": {
        "code": "LJB",
        "name": "Ljosanbotn",
        "platforms": 1,
        "lat": 60.70879711047376,
        "long": 6.900980472564698
    },
    "LLE": {
        "code": "LLE",
        "name": "Langlete",
        "platforms": 1,
        "lat": 62.960632895793616,
        "long": 10.979220271110536
    },
    "LLS": {
        "code": "LLS",
        "name": "Lillestrøm",
        "platforms": 9,
        "lat": 59.95341367315465,
        "long": 11.045154333114624
    },
    "LMO": {
        "code": "LMO",
        "name": "Lundamo",
        "platforms": 1,
        "lat": 63.15198816331427,
        "long": 10.280107368601772
    },
    "LND": {
        "code": "LND",
        "name": "Lunden",
        "platforms": 1,
        "lat": "0",
        "long": "0"
    },
    "LRK": {
        "code": "LRK",
        "name": "Lerkendal",
        "platforms": 1,
        "lat": 63.413833508070546,
        "long": 10.409186482429506
    },
    "LSD": {
        "code": "LSD",
        "name": "Leirsund",
        "platforms": 1,
        "lat": 59.99995433371917,
        "long": 11.087045073509218
    },
    "LSM": {
        "code": "LSM",
        "name": "Lassemoen",
        "platforms": 1,
        "lat": 64.69634003592053,
        "long": 12.71512389148296
    },
    "LSV": {
        "code": "LSV",
        "name": "Lesjaverk",
        "platforms": 1,
        "lat": 62.19240512890953,
        "long": 8.538275957107546
    },
    "LU": {
        "code": "LU",
        "name": "Lunner",
        "platforms": 1,
        "lat": 60.30482355539258,
        "long": 10.584538578987123
    },
    "LUN": {
        "code": "LUN",
        "name": "Lunde",
        "platforms": 1,
        "lat": 59.29884453247537,
        "long": 9.101164340972902
    },
    "LVK": {
        "code": "LVK",
        "name": "Larvik",
        "platforms": 1,
        "lat": 59.050147584374876,
        "long": 10.031386613845825
    },
    "LYS": {
        "code": "LYS",
        "name": "Lysaker",
        "platforms": 1,
        "lat": 59.913554645867244,
        "long": 10.637026276769504
    },
    "LØN": {
        "code": "LØN",
        "name": "Lønsdal",
        "platforms": 1,
        "lat": 66.7425725372944,
        "long": 15.462880943079341
    },
    "LØR": {
        "code": "LØR",
        "name": "Lørenskog",
        "platforms": 1,
        "lat": 59.944933702249074,
        "long": 10.944802165031435
    },
    "LØT": {
        "code": "LØT",
        "name": "Løten",
        "platforms": 1,
        "lat": 60.818783516599154,
        "long": 11.342273354530336
    },
    "MAJ": {
        "code": "MAJ",
        "name": "Majavatn",
        "platforms": 1,
        "lat": 65.16457456490159,
        "long": 13.367935801983785
    },
    "MDL": {
        "code": "MDL",
        "name": "Marnardal",
        "platforms": 1,
        "lat": 58.21273349264165,
        "long": 7.512567043304444
    },
    "MER": {
        "code": "MER",
        "name": "Meråker",
        "platforms": 1,
        "lat": 63.42276844902445,
        "long": 11.760156154632568
    },
    "MFJ": {
        "code": "MFJ",
        "name": "Mjølfjell",
        "platforms": 1,
        "lat": 60.693882109159965,
        "long": 6.840287446975709
    },
    "MJD": {
        "code": "MJD",
        "name": "Mjøndalen",
        "platforms": 1,
        "lat": 59.75086307697047,
        "long": 10.010840892791748
    },
    "MLV": {
        "code": "MLV",
        "name": "Moelv",
        "platforms": 1,
        "lat": 60.92961862281644,
        "long": 10.698956251144411
    },
    "MO": {
        "code": "MO",
        "name": "Mo i Rana",
        "platforms": 1,
        "lat": 66.30945721027605,
        "long": 14.133298908764045
    },
    "MOI": {
        "code": "MOI",
        "name": "Moi",
        "platforms": 1,
        "lat": 58.45796217047166,
        "long": 6.55137062072754
    },
    "MOS": {
        "code": "MOS",
        "name": "Moss",
        "platforms": 1,
        "lat": 59.43191227262177,
        "long": 10.657258629798891
    },
    "MRO": {
        "code": "MRO",
        "name": "Mariero",
        "platforms": 1,
        "lat": 58.933306210944686,
        "long": 5.7540249824523935
    },
    "MSJ": {
        "code": "MSJ",
        "name": "Mosjøen",
        "platforms": 1,
        "lat": 65.84463319161499,
        "long": 13.200158552081291
    },
    "MSK": {
        "code": "MSK",
        "name": "Melhus",
        "platforms": 1,
        "lat": 63.28440525730071,
        "long": 10.276814103126528
    },
    "MVT": {
        "code": "MVT",
        "name": "Movatn",
        "platforms": 1,
        "lat": 60.03782681169845,
        "long": 10.813003778457642
    },
    "MYR": {
        "code": "MYR",
        "name": "Myrdal",
        "platforms": 11,
        "lat": 60.734654065890275,
        "long": 7.1229708194732675
    },
    "MYS": {
        "code": "MYS",
        "name": "Mysen",
        "platforms": 1,
        "lat": 59.55379644933493,
        "long": 11.324248909950256
    },
    "MYV": {
        "code": "MYV",
        "name": "Myrvoll",
        "platforms": 1,
        "lat": 59.786012793102024,
        "long": 10.800483226776123
    },
    "MØR": {
        "code": "MØR",
        "name": "Mørkved",
        "platforms": 1,
        "lat": 67.28389054739786,
        "long": 14.556621531145387
    },
    "NBY": {
        "code": "NBY",
        "name": "Nordby",
        "platforms": 1,
        "lat": 60.15540364778295,
        "long": 11.18163049221039
    },
    "NBØ": {
        "code": "NBØ",
        "name": "Nærbø",
        "platforms": 1,
        "lat": 58.66566852247932,
        "long": 5.64049780368805
    },
    "NDL": {
        "code": "NDL",
        "name": "Nodeland",
        "platforms": 1,
        "lat": 58.15700924515812,
        "long": 7.835049033164979
    },
    "NEL": {
        "code": "NEL",
        "name": "Nelaug",
        "platforms": 1,
        "lat": 58.65747153175634,
        "long": 8.630141615867617
    },
    "NER": {
        "code": "NER",
        "name": "Nerdrum",
        "platforms": 1,
        "lat": 59.92293012881299,
        "long": 11.141048669815065
    },
    "NES": {
        "code": "NES",
        "name": "Nesbyen",
        "platforms": 1,
        "lat": 60.576912544434066,
        "long": 9.112864136695864
    },
    "NGU": {
        "code": "NGU",
        "name": "Nordagutu",
        "platforms": 1,
        "lat": 59.41800554868534,
        "long": 9.32270407676697
    },
    "NIT": {
        "code": "NIT",
        "name": "Nittedal",
        "platforms": 1,
        "lat": 60.05827323982672,
        "long": 10.86447536945343
    },
    "NK": {
        "code": "NK",
        "name": "Narvik",
        "platforms": 1,
        "lat": 68.44167832990607,
        "long": 17.441460067083582
    },
    "NNN": {
        "code": "NNN",
        "name": "Lademoen",
        "platforms": 1,
        "lat": 63.43722481269542,
        "long": 10.416637659072878
    },
    "NRU": {
        "code": "NRU",
        "name": "Nakkerud",
        "platforms": 1,
        "lat": "0",
        "long": "0"
    },
    "NSK": {
        "code": "NSK",
        "name": "Namsskogan",
        "platforms": 1,
        "lat": 64.92585144594213,
        "long": 13.152640444774406
    },
    "NST": {
        "code": "NST",
        "name": "Nordstrand",
        "platforms": 1,
        "lat": 59.86352098542929,
        "long": 10.785833001136782
    },
    "NTD": {
        "code": "NTD",
        "name": "Notodden",
        "platforms": 1,
        "lat": 59.55923857547567,
        "long": 9.266704916954042
    },
    "NTH": {
        "code": "NTH",
        "name": "Nationaltheatret",
        "defaultDestinations": [
            {
                "code": "ASR",
                "header": "<b>Asker</b> via Nationaltheatret • Lysaker",
                "departures": [
                    {
                        "line": "L1",
                        "destination": "ASR"
                    },
                    {
                        "line": "L1",
                        "destination": "SPI"
                    },
                    {
                        "line": "R10",
                        "destination": "DRM"
                    },
                    {
                        "line": "R11",
                        "destination": "SKN"
                    },
                    {
                        "line": "L12",
                        "destination": "KBG"
                    },
                    {
                        "line": "L13",
                        "destination": "DRM"
                    },
                    {
                        "line": "L13",
                        "destination": "KBG"
                    },
                    {
                        "line": "L14",
                        "destination": "DRM"
                    }
                ]
            },
            {
                "code": "LLS",
                "header": "<b>Lillestrøm</b> Direkte tog / Direct trains",
                "departures": [
                    {
                        "line": "L1",
                        "destination": "LLS"
                    },
                    {
                        "line": "R10",
                        "destination": "LHM"
                    },
                    {
                        "line": "R11",
                        "destination": "EVL"
                    },
                    {
                        "line": "L12",
                        "destination": "EVL"
                    },
                    {
                        "line": "L13",
                        "destination": "DAL"
                    },
                    {
                        "line": "L14",
                        "destination": "KVG"
                    }
                ]
            },
            {
                "code": "SKI",
                "header": "<b>Ski</b>",
                "departures": [
                    {
                        "line": "L2",
                        "destination": "SLO"
                    },
                    {
                        "line": "L21",
                        "destination": "MOS"
                    },
                    {
                        "line": "L22",
                        "destination": "MYS"
                    },
                    {
                        "line": "L22",
                        "destination": "RST"
                    }
                ]
            },
            {
                "code": "GAR",
                "header": "<b>Oslo Lufthavn</b> Oslo Airport",
                "departures": [
                    {
                        "line": "F1",
                        "destination": "GAR"
                    },
                    {
                        "line": "F1x",
                        "destination": "GAR"
                    },
                    {
                        "line": "F2",
                        "destination": "GAR"
                    },
                    {
                        "line": "R10",
                        "destination": "LHM"
                    },
                    {
                        "line": "R11",
                        "destination": "EVL"
                    },
                    {
                        "line": "L12",
                        "destination": "EVL"
                    }
                ]
            }
        ],
        "platforms": 1,
        "lat": 59.91539370977718,
        "long": 10.728196059601212
    },
    "NTR": {
        "code": "NTR",
        "name": "Nisterud",
        "platforms": 1,
        "lat": 59.30045498002985,
        "long": 9.485015273094179
    },
    "NVT": {
        "code": "NVT",
        "name": "Neslandsvatn",
        "platforms": 1,
        "lat": 58.97151358381699,
        "long": 9.15617108345032
    },
    "NYD": {
        "code": "NYD",
        "name": "Nydalen",
        "platforms": 1,
        "lat": 59.951778377005716,
        "long": 10.771708488464357
    },
    "NYL": {
        "code": "NYL",
        "name": "Nyland",
        "platforms": 1,
        "lat": 59.94360917279754,
        "long": 10.870842933654785
    },
    "OGN": {
        "code": "OGN",
        "name": "Ogna",
        "platforms": 1,
        "lat": 58.51977622848782,
        "long": 5.803168416023254
    },
    "OKL": {
        "code": "OKL",
        "name": "Oklungen",
        "platforms": 1,
        "lat": "0",
        "long": "0"
    },
    "OPD": {
        "code": "OPD",
        "name": "Oppdal",
        "platforms": 1,
        "lat": 62.59315429004656,
        "long": 9.694393873214723
    },
    "OPG": {
        "code": "OPG",
        "name": "Oppegård",
        "platforms": 1,
        "lat": 59.76516611284579,
        "long": 10.813271999359133
    },
    "OPH": {
        "code": "OPH",
        "name": "Opphus",
        "platforms": 1,
        "lat": 61.33155172578899,
        "long": 11.260675191879274
    },
    "OS": {
        "code": "OS",
        "name": "Os",
        "platforms": 1,
        "lat": 62.4973588820218,
        "long": 11.227131485939028
    },
    "OSL": {
        "code": "OSL",
        "name": "Oslo S",
        "defaultDestinations": [
            {
                "code": "ASR",
                "header": "<b>Asker</b> via Nationaltheatret • Lysaker",
                "departures": [
                    {
                        "line": "L1",
                        "destination": "ASR"
                    },
                    {
                        "line": "L1",
                        "destination": "SPI"
                    },
                    {
                        "line": "R10",
                        "destination": "DRM"
                    },
                    {
                        "line": "R11",
                        "destination": "SKN"
                    },
                    {
                        "line": "L12",
                        "destination": "KBG"
                    },
                    {
                        "line": "L13",
                        "destination": "DRM"
                    },
                    {
                        "line": "L13",
                        "destination": "KBG"
                    },
                    {
                        "line": "L14",
                        "destination": "ASR"
                    }
                ]
            },
            {
                "code": "LLS",
                "header": "<b>Lillestrøm</b> Direkte tog / Direct trains",
                "departures": [
                    {
                        "line": "L1",
                        "destination": "LLS"
                    },
                    {
                        "line": "R10",
                        "destination": "LHM"
                    },
                    {
                        "line": "R11",
                        "destination": "EVL"
                    },
                    {
                        "line": "R11x",
                        "destination": "LLS"
                    },
                    {
                        "line": "L12",
                        "destination": "EVL"
                    },
                    {
                        "line": "L13",
                        "destination": "DAL"
                    },
                    {
                        "line": "L14",
                        "destination": "KVG"
                    }
                ]
            },
            {
                "code": "SKI",
                "header": "<b>Ski</b>",
                "departures": [
                    {
                        "line": "L2",
                        "destination": "SKI"
                    },
                    {
                        "line": "L2x",
                        "destination": "SKI"
                    },
                    {
                        "line": "R20",
                        "destination": "HLD"
                    },
                    {
                        "line": "L21",
                        "destination": "MOS"
                    },
                    {
                        "line": "L21x",
                        "destination": "MOS"
                    },
                    {
                        "line": "L22",
                        "destination": "MYS"
                    },
                    {
                        "line": "L22",
                        "destination": "RST"
                    }
                ]
            },
            {
                "code": "GAR",
                "header": "<b>Oslo Lufthavn</b> Oslo Airport",
                "departures": [
                    {
                        "line": "F1",
                        "destination": "GAR"
                    },
                    {
                        "line": "F1x",
                        "destination": "GAR"
                    },
                    {
                        "line": "F2",
                        "destination": "GAR"
                    },
                    {
                        "line": "R10",
                        "destination": "LHM"
                    },
                    {
                        "line": "R11",
                        "destination": "EVL"
                    },
                    {
                        "line": "L12",
                        "destination": "EVL"
                    }
                ]
            }
        ],
        "platforms": 19,
        "lat": 59.91102383480221,
        "long": 10.75314393979083
    },
    "OTA": {
        "code": "OTA",
        "name": "Otta",
        "platforms": 1,
        "lat": 61.77226971668018,
        "long": 9.537012577056887
    },
    "OTR": {
        "code": "OTR",
        "name": "Oteråga",
        "platforms": 1,
        "lat": 67.29928974373568,
        "long": 14.870987131327135
    },
    "PAR": {
        "code": "PAR",
        "name": "Paradis",
        "platforms": 1,
        "lat": 58.95594487298111,
        "long": 5.742459297180177
    },
    "PG": {
        "code": "PG",
        "name": "Porsgrunn",
        "platforms": 1,
        "lat": 59.14009317806154,
        "long": 9.658602476119997
    },
    "RAD": {
        "code": "RAD",
        "name": "Rudstad",
        "platforms": 1,
        "lat": "0",
        "long": "0"
    },
    "RAU": {
        "code": "RAU",
        "name": "Raufoss",
        "platforms": 1,
        "lat": 60.72224241402903,
        "long": 10.613506436347963
    },
    "RBU": {
        "code": "RBU",
        "name": "Ringebu",
        "platforms": 1,
        "lat": 61.52917386770498,
        "long": 10.139318704605104
    },
    "REI": {
        "code": "REI",
        "name": "Reitan",
        "platforms": 1,
        "lat": 62.80765737924367,
        "long": 11.378735303878786
    },
    "REN": {
        "code": "REN",
        "name": "Rena",
        "platforms": 1,
        "lat": 61.134722194965896,
        "long": 11.369760632514955
    },
    "RFS": {
        "code": "RFS",
        "name": "Rånåsfoss",
        "platforms": 1,
        "lat": 60.029281514273336,
        "long": 11.327955722808838
    },
    "RGN": {
        "code": "RGN",
        "name": "Rognes",
        "platforms": 1,
        "lat": 63.0047228309509,
        "long": 10.458673238754274
    },
    "RIS": {
        "code": "RIS",
        "name": "Rise",
        "platforms": 1,
        "lat": 58.4685988866555,
        "long": 8.623484373092653
    },
    "RLA": {
        "code": "RLA",
        "name": "Ronglan",
        "platforms": 1,
        "lat": 63.66632875516278,
        "long": 11.113142967224123
    },
    "RMG": {
        "code": "RMG",
        "name": "Reimegrend",
        "platforms": 1,
        "lat": 60.67819604997533,
        "long": 6.730756759643555
    },
    "RNU": {
        "code": "RNU",
        "name": "Reinunga",
        "platforms": 1,
        "lat": 60.743977191353025,
        "long": 7.139005064964295
    },
    "ROA": {
        "code": "ROA",
        "name": "Roa",
        "defaultDestinations": [
            {
                "code": "GJØ",
                "header": "<b>Gjøvik</b> via Jaren • Raufoss",
                "departures": [
                    {
                        "line": "R30",
                        "destination": "GJØ"
                    },
                    {
                        "line": "R30x",
                        "destination": "GJØ"
                    }
                ]
            },
            {
                "code": "JAR",
                "header": "<b>Jaren</b>",
                "departures": [
                    {
                        "line": "L3",
                        "destination": "JAR"
                    },
                    {
                        "line": "R30",
                        "destination": "GJØ"
                    },
                    {
                        "line": "R30x",
                        "destination": "GJØ"
                    }
                ]
            }
        ],
        "platforms": 1,
        "lat": 60.28349027999443,
        "long": 10.620930790901184
    },
    "ROG": {
        "code": "ROG",
        "name": "Rognan",
        "platforms": 1,
        "lat": 67.09331388362551,
        "long": 15.398506840332983
    },
    "ROM": {
        "code": "ROM",
        "name": "Rombak",
        "platforms": 1,
        "lat": 68.40382413805075,
        "long": 17.790561116799587
    },
    "ROS": {
        "code": "ROS",
        "name": "Røros",
        "platforms": 1,
        "lat": 62.57460237392667,
        "long": 11.379497051239015
    },
    "ROT": {
        "code": "ROT",
        "name": "Rotvoll",
        "platforms": 1,
        "lat": 63.436656020804676,
        "long": 10.480549335479738
    },
    "RSH": {
        "code": "RSH",
        "name": "Rosenholm",
        "platforms": 1,
        "lat": 59.82392214379838,
        "long": 10.797742009162905
    },
    "RST": {
        "code": "RST",
        "name": "Rakkestad",
        "platforms": 1,
        "lat": 59.42726452249309,
        "long": 11.33938193321228
    },
    "RVO": {
        "code": "RVO",
        "name": "Reinsvoll",
        "platforms": 1,
        "lat": 60.67898218582802,
        "long": 10.616456866264345
    },
    "RYG": {
        "code": "RYG",
        "name": "Rygge",
        "platforms": 1,
        "lat": 59.37796478801767,
        "long": 10.748024582862856
    },
    "RÅD": {
        "code": "RÅD",
        "name": "Råde",
        "platforms": 1,
        "lat": 59.347423281366254,
        "long": 10.865414142608644
    },
    "RØ": {
        "code": "RØ",
        "name": "Røra",
        "platforms": 1,
        "lat": 63.85683791633374,
        "long": 11.401657462120058
    },
    "RØK": {
        "code": "RØK",
        "name": "Røkland",
        "platforms": 1,
        "lat": 66.98128766232713,
        "long": 15.312988147693385
    },
    "RØY": {
        "code": "RØY",
        "name": "Røyken",
        "platforms": 1,
        "lat": 59.74680324414393,
        "long": 10.389933586120607
    },
    "SAS": {
        "code": "SAS",
        "name": "Sandnes",
        "platforms": 1,
        "lat": "0",
        "long": "0"
    },
    "SBG": {
        "code": "SBG",
        "name": "Steinberg",
        "platforms": 1,
        "lat": 59.75952037097009,
        "long": 9.961439967155458
    },
    "SBO": {
        "code": "SBO",
        "name": "Sarpsborg",
        "platforms": 1,
        "lat": 59.286218773254504,
        "long": 11.117761731147768
    },
    "SBU": {
        "code": "SBU",
        "name": "Skotbu",
        "platforms": 1,
        "lat": 59.66573157866263,
        "long": 10.946062803268434
    },
    "SDA": {
        "code": "SDA",
        "name": "Sagdalen",
        "platforms": 1,
        "lat": 59.95631242657503,
        "long": 11.015757322311401
    },
    "SEG": {
        "code": "SEG",
        "name": "Skonseng",
        "platforms": 1,
        "lat": 66.36202418368427,
        "long": 14.344779932356627
    },
    "SFJ": {
        "code": "SFJ",
        "name": "Sandefjord",
        "platforms": 1,
        "lat": 59.13541728109422,
        "long": 10.222896337509157
    },
    "SGD": {
        "code": "SGD",
        "name": "Svenningdal",
        "platforms": 1,
        "lat": "0",
        "long": "0"
    },
    "SGN": {
        "code": "SGN",
        "name": "Skogn",
        "platforms": 1,
        "lat": 63.70500753975953,
        "long": 11.19409203529358
    },
    "SGR": {
        "code": "SGR",
        "name": "Seimsgrend",
        "platforms": 1,
        "lat": 60.632403535810724,
        "long": 6.236393451690675
    },
    "SIN": {
        "code": "SIN",
        "name": "Singsås",
        "platforms": 1,
        "lat": 62.956217331445764,
        "long": 10.729340314865112
    },
    "SIR": {
        "code": "SIR",
        "name": "Sira",
        "platforms": 1,
        "lat": 58.417630254214224,
        "long": 6.660643815994264
    },
    "SKA": {
        "code": "SKA",
        "name": "Skarnes",
        "platforms": 1,
        "lat": 60.25371839633964,
        "long": 11.680151224136353
    },
    "SKI": {
        "code": "SKI",
        "name": "Ski",
        "platforms": 4,
        "lat": 59.71951584779351,
        "long": 10.83503544330597
    },
    "SKK": {
        "code": "SKK",
        "name": "Stokke",
        "platforms": 1,
        "lat": 59.22124657442858,
        "long": 10.300170779228212
    },
    "SKN": {
        "code": "SKN",
        "name": "Skien",
        "platforms": 1,
        "lat": 59.21896571098662,
        "long": 9.603375792503357
    },
    "SKP": {
        "code": "SKP",
        "name": "Skoppum",
        "platforms": 1,
        "lat": 59.39146130213086,
        "long": 10.411149859428408
    },
    "SKS": {
        "code": "SKS",
        "name": "Skansen",
        "platforms": 1,
        "lat": 63.43108639052239,
        "long": 10.377498865127565
    },
    "SKV": {
        "code": "SKV",
        "name": "Skatval",
        "platforms": 1,
        "lat": 63.508693327163954,
        "long": 10.823276638984682
    },
    "SKØ": {
        "code": "SKØ",
        "name": "Skøyen",
        "platforms": 1,
        "lat": 59.92240374161986,
        "long": 10.678242399722706
    },
    "SLB": {
        "code": "SLB",
        "name": "Selsbakk",
        "platforms": 1,
        "lat": 63.38938330932839,
        "long": 10.373094075931258
    },
    "SLE": {
        "code": "SLE",
        "name": "Slependen",
        "platforms": 1,
        "lat": 59.88558410985543,
        "long": 10.502772177322022
    },
    "SLU": {
        "code": "SLU",
        "name": "Slitu",
        "platforms": 1,
        "lat": 59.56684711573004,
        "long": 11.261823177337646
    },
    "SNA": {
        "code": "SNA",
        "name": "Snartemo",
        "platforms": 1,
        "lat": 58.33166777822559,
        "long": 7.211591005325318
    },
    "SND": {
        "code": "SND",
        "name": "Sande",
        "platforms": 1,
        "lat": 59.58585486010463,
        "long": 10.204426646232607
    },
    "SNI": {
        "code": "SNI",
        "name": "Snippen",
        "platforms": 1,
        "lat": 60.02390840828522,
        "long": 10.809983611106873
    },
    "SNV": {
        "code": "SNV",
        "name": "Steinvik",
        "platforms": 1,
        "lat": 61.25117213197697,
        "long": 11.324179172515871
    },
    "SNÅ": {
        "code": "SNÅ",
        "name": "Snåsa",
        "platforms": 1,
        "lat": 64.24587401709293,
        "long": 12.379740610659443
    },
    "SOA": {
        "code": "SOA",
        "name": "Stoa",
        "platforms": 1,
        "lat": 58.46600906223254,
        "long": 8.709336519241335
    },
    "SOL": {
        "code": "SOL",
        "name": "Solbråtan",
        "platforms": 1,
        "lat": 59.80098141621042,
        "long": 10.804506540298464
    },
    "SON": {
        "code": "SON",
        "name": "Sonsveien",
        "platforms": 1,
        "lat": 59.51541704465673,
        "long": 10.725713968276978
    },
    "SPB": {
        "code": "SPB",
        "name": "Sparbu",
        "platforms": 1,
        "lat": 63.91901310603174,
        "long": 11.42883360385895
    },
    "SPG": {
        "code": "SPG",
        "name": "Spydeberg",
        "platforms": 1,
        "lat": 59.62071735375795,
        "long": 11.07902526855469
    },
    "SPI": {
        "code": "SPI",
        "name": "Spikkestad",
        "platforms": 1,
        "lat": 59.7450365112985,
        "long": 10.343145132064821
    },
    "SPL": {
        "code": "SPL",
        "name": "Skiple",
        "platforms": 1,
        "lat": 60.6811725247618,
        "long": 6.6797733306884775
    },
    "SSE": {
        "code": "SSE",
        "name": "Sandnes Sentrum",
        "platforms": 1,
        "lat": 58.852253773850286,
        "long": 5.736520886421204
    },
    "STA": {
        "code": "STA",
        "name": "Stai",
        "platforms": 1,
        "lat": 61.49451006517543,
        "long": 11.05875849723816
    },
    "STB": {
        "code": "STB",
        "name": "Stabekk",
        "platforms": 1,
        "lat": 59.90804663764167,
        "long": 10.607335218900383
    },
    "STG": {
        "code": "STG",
        "name": "Stange",
        "platforms": 1,
        "lat": 60.717747720264,
        "long": 11.194896697998049
    },
    "STH": {
        "code": "STH",
        "name": "Stanghelle",
        "platforms": 1,
        "lat": 60.54913449953159,
        "long": 5.733157396316528
    },
    "STJ": {
        "code": "STJ",
        "name": "Stjørdal",
        "platforms": 1,
        "lat": 63.47025014085381,
        "long": 10.913602709770204
    },
    "STK": {
        "code": "STK",
        "name": "Steinkjer",
        "platforms": 1,
        "lat": 64.01250050880898,
        "long": 11.494611459346677
    },
    "STN": {
        "code": "STN",
        "name": "Strømmen",
        "platforms": 1,
        "lat": 59.949458138399855,
        "long": 11.001911759376528
    },
    "STO": {
        "code": "STO",
        "name": "Storekvina",
        "platforms": 1,
        "lat": 58.37956402958223,
        "long": 6.958154439926148
    },
    "STV": {
        "code": "STV",
        "name": "Stavanger",
        "defaultDestinations": [
            {
                "code": "KRS",
                "header": "<b>Kristiansand</b>",
                "departures": [
                    {
                        "line": "",
                        "destination": "KRS"
                    },
                    {
                        "line": "",
                        "destination": "OSL"
                    }
                ]
            },
            {
                "code": "OSL",
                "header": "<b>Oslo S</b> via Kristiansand • Nelaug • Drammen",
                "departures": [
                    {
                        "line": "",
                        "destination": "OSL"
                    }
                ]
            },
            {
                "code": "EGS",
                "header": "<b>Egersund</b> via Sandnes Sentrum • Nærbø",
                "departures": [
                    {
                        "line": "",
                        "destination": "EGS"
                    }
                ]
            },
            {
                "code": "NBØ",
                "header": "<b>Nærbø</b> via Sandnes Sentrum • Bryne",
                "departures": [
                    {
                        "line": "",
                        "destination": "EGS"
                    },
                    {
                        "line": "",
                        "destination": "NBØ"
                    }
                ]
            }
        ],
        "platforms": 1,
        "lat": 58.9668326168019,
        "long": 5.732063055038453
    },
    "STØ": {
        "code": "STØ",
        "name": "Støren",
        "platforms": 1,
        "lat": 63.051568949533625,
        "long": 10.28498411178589
    },
    "SV": {
        "code": "SV",
        "name": "Sandvika",
        "platforms": 1,
        "lat": 59.89259458594793,
        "long": 10.524521451962132
    },
    "SVI": {
        "code": "SVI",
        "name": "Svingen",
        "platforms": 1,
        "lat": 59.9289763088937,
        "long": 11.177344322204592
    },
    "SVN": {
        "code": "SVN",
        "name": "Marienborg",
        "platforms": 1,
        "lat": 63.419171417659506,
        "long": 10.382230281829836
    },
    "SVÅ": {
        "code": "SVÅ",
        "name": "Sirevåg",
        "platforms": 1,
        "lat": "0",
        "long": "0"
    },
    "SY": {
        "code": "SY",
        "name": "Stryken",
        "platforms": 1,
        "lat": 60.16551875121171,
        "long": 10.720242261886598
    },
    "SØR": {
        "code": "SØR",
        "name": "Sørumsand",
        "platforms": 1,
        "lat": 59.98588918933965,
        "long": 11.240188479423523
    },
    "SØS": {
        "code": "SØS",
        "name": "Søsterbekk",
        "platforms": 1,
        "lat": 68.4350898952079,
        "long": 18.003367137645682
    },
    "TAN": {
        "code": "TAN",
        "name": "Tangen",
        "platforms": 1,
        "lat": 60.616117564288324,
        "long": 11.269569396972658
    },
    "TBG": {
        "code": "TBG",
        "name": "Tønsberg",
        "platforms": 1,
        "lat": 59.2720580274449,
        "long": 10.409320592880249
    },
    "TND": {
        "code": "TND",
        "name": "Trondheim",
        "defaultDestinations": [
            {
                "code": "OSL",
                "header": "<b>Oslo S</b> via Støren • Oppdal • Oslo Lufthavn",
                "departures": [
                    {
                        "line": "",
                        "destination": "OSL"
                    }
                ]
            },
            {
                "code": "LMO",
                "header": "<b>Lundamo</b> via Marienborg • Heimdal",
                "departures": [
                    {
                        "line": "",
                        "destination": "LMO"
                    },
                    {
                        "line": "",
                        "destination": "MSK"
                    }
                ]
            },
            {
                "code": "STK",
                "header": "<b>Steinkjer</b> via Stjørdal • Levanger",
                "departures": [
                    {
                        "line": "",
                        "destination": "STK"
                    },
                    {
                        "line": "",
                        "destination": "MSK"
                    }
                ]
            },
            {
                "code": "BO",
                "header": "<b>Bodø</b> via Stjørdal • Levanger",
                "departures": [
                    {
                        "line": "",
                        "destination": "Bo"
                    }
                ]
            }
        ],
        "platforms": 4,
        "lat": 63.43645101325987,
        "long": 10.398071408271791
    },
    "TOL": {
        "code": "TOL",
        "name": "Tolga",
        "platforms": 1,
        "lat": 62.4085413200129,
        "long": 10.997985005378725
    },
    "TOM": {
        "code": "TOM",
        "name": "Tomter",
        "platforms": 1,
        "lat": 59.65982800581763,
        "long": 11.002625226974487
    },
    "TOR": {
        "code": "TOR",
        "name": "Torp",
        "platforms": 1,
        "lat": 59.16564393492016,
        "long": 10.266353487968447
    },
    "TRD": {
        "code": "TRD",
        "name": "Trengereid",
        "platforms": 1,
        "lat": 60.429072094142484,
        "long": 5.624452829360962
    },
    "TRO": {
        "code": "TRO",
        "name": "Trofors",
        "platforms": 1,
        "lat": 65.53811814820554,
        "long": 13.382844057283087
    },
    "TRY": {
        "code": "TRY",
        "name": "Trykkerud",
        "platforms": 1,
        "lat": 59.512066496719456,
        "long": 9.336222410202028
    },
    "TUE": {
        "code": "TUE",
        "name": "Tuen",
        "platforms": 1,
        "lat": 59.94303703478388,
        "long": 11.102339029312134
    },
    "TVL": {
        "code": "TVL",
        "name": "Tverlandet",
        "platforms": 1,
        "lat": 67.30126723841302,
        "long": 14.746479266052969
    },
    "TYN": {
        "code": "TYN",
        "name": "Tynset",
        "platforms": 1,
        "lat": 62.27476146395218,
        "long": 10.776246786117555
    },
    "TØY": {
        "code": "TØY",
        "name": "Tøyen",
        "platforms": 1,
        "lat": 59.920958344405506,
        "long": 10.780677795410156
    },
    "UPS": {
        "code": "UPS",
        "name": "Upsete",
        "platforms": 1,
        "lat": 60.72539060929304,
        "long": 7.011922001838685
    },
    "URD": {
        "code": "URD",
        "name": "Urdland",
        "platforms": 1,
        "lat": 60.67950687586262,
        "long": 6.592762470245361
    },
    "UST": {
        "code": "UST",
        "name": "Ustaoset",
        "platforms": 1,
        "lat": 60.49653838824113,
        "long": 8.045071363449098
    },
    "VAD": {
        "code": "VAD",
        "name": "Vaksdal",
        "platforms": 1,
        "lat": 60.4786986150565,
        "long": 5.7350993156433105
    },
    "VAK": {
        "code": "VAK",
        "name": "Vakås",
        "platforms": 1,
        "lat": 59.84965433643597,
        "long": 10.466993451118471
    },
    "VAL": {
        "code": "VAL",
        "name": "Valnesfjord",
        "platforms": 1,
        "lat": 67.29934139875996,
        "long": 15.192352969441083
    },
    "VAR": {
        "code": "VAR",
        "name": "Varingskollen",
        "platforms": 1,
        "lat": 60.10601367247398,
        "long": 10.847159028053284
    },
    "VBY": {
        "code": "VBY",
        "name": "Vestby",
        "platforms": 1,
        "lat": 59.60351802536299,
        "long": 10.7483571767807
    },
    "VDL": {
        "code": "VDL",
        "name": "Verdal",
        "platforms": 1,
        "lat": 63.79108763381323,
        "long": 11.484398245811464
    },
    "VEV": {
        "code": "VEV",
        "name": "Vevelstad",
        "platforms": 1,
        "lat": 59.75639709293812,
        "long": 10.837245583534242
    },
    "VFS": {
        "code": "VFS",
        "name": "Vestfossen",
        "platforms": 1,
        "lat": 59.73434930905696,
        "long": 9.867353439331056
    },
    "VGH": {
        "code": "VGH",
        "name": "Vegårshei",
        "platforms": 1,
        "lat": 58.76081934968816,
        "long": 8.855693936347963
    },
    "VHG": {
        "code": "VHG",
        "name": "Varhaug",
        "platforms": 1,
        "lat": 58.618213442185215,
        "long": 5.6463342905044565
    },
    "VHR": {
        "code": "VHR",
        "name": "Vikhammer",
        "platforms": 1,
        "lat": 63.438785417532436,
        "long": 10.623666644096376
    },
    "VIG": {
        "code": "VIG",
        "name": "Vigrestad",
        "platforms": 1,
        "lat": 58.570339664543376,
        "long": 5.687554478645325
    },
    "VIN": {
        "code": "VIN",
        "name": "Vinstra",
        "platforms": 1,
        "lat": 61.595349390722944,
        "long": 9.747292399406435
    },
    "VKS": {
        "code": "VKS",
        "name": "Vikersund",
        "platforms": 1,
        "lat": 59.96967926150542,
        "long": 9.998105091157848
    },
    "VNL": {
        "code": "VNL",
        "name": "Vennesla",
        "platforms": 1,
        "lat": 58.25317525039604,
        "long": 7.967630624771119
    },
    "VOS": {
        "code": "VOS",
        "name": "Voss",
        "platforms": 1,
        "lat": 60.629101094101365,
        "long": 6.410120129585266
    },
    "VRN": {
        "code": "VRN",
        "name": "Vieren",
        "platforms": 1,
        "lat": 60.70924044914565,
        "long": 6.979542374610902
    },
    "VTH": {
        "code": "VTH",
        "name": "Vatnahalsen",
        "platforms": 1,
        "lat": 60.74393402205921,
        "long": 7.12989091873169
    },
    "VÆR": {
        "code": "VÆR",
        "name": "Trondheim Lufthavn",
        "platforms": 1,
        "lat": 63.453913184710125,
        "long": 10.913774371147158
    },
    "YGH": {
        "code": "YGH",
        "name": "Ygre",
        "platforms": 1,
        "lat": 60.64532015648462,
        "long": 6.507087349891663
    },
    "ÅBY": {
        "code": "ÅBY",
        "name": "Åneby",
        "platforms": 1,
        "lat": 60.085464693547024,
        "long": 10.8627587556839
    },
    "ÅL": {
        "code": "ÅL",
        "name": "Ål",
        "platforms": 1,
        "lat": 60.626475676563366,
        "long": 8.562571406364443
    },
    "ÅLN": {
        "code": "ÅLN",
        "name": "Ålen",
        "platforms": 1,
        "lat": 62.846333082648684,
        "long": 11.315574645996096
    },
    "ÅND": {
        "code": "ÅND",
        "name": "Åndalsnes",
        "platforms": 1,
        "lat": 62.56729076795854,
        "long": 7.691003680229188
    },
    "ÅRN": {
        "code": "ÅRN",
        "name": "Årnes",
        "platforms": 1,
        "lat": 60.12363529722095,
        "long": 11.464871764183044
    },
    "ÅS": {
        "code": "ÅS",
        "name": "Ås",
        "platforms": 1,
        "lat": 59.66304229206379,
        "long": 10.794496536254885
    },
    "ÅSE": {
        "code": "ÅSE",
        "name": "Åsen",
        "platforms": 1,
        "lat": 63.60940045361481,
        "long": 11.052187085151674
    },
    "ØBG": {
        "code": "ØBG",
        "name": "Ørneberget",
        "platforms": 1,
        "lat": 60.70331391901782,
        "long": 6.941315531730653
    },
    "ØFL": {
        "code": "ØFL",
        "name": "Øyeflaten",
        "platforms": 1,
        "lat": 60.680207962860635,
        "long": 6.627856492996216
    },
    "ØKP": {
        "code": "ØKP",
        "name": "Øksnavadporten",
        "platforms": 1,
        "lat": 58.78669070584536,
        "long": 5.70167899131775
    }
}